{"data":[{"city":"Hamburg","geo":{"lat":53.5511,"lng":9.9937},"restaurants":[{"name":"Ramen Bar Zipang","description":"Sobald ihr den Laden betretet fühlt ihr euch als wärt ihr in Tokio.","address":"Eppendorfer Weg 62, 20259 Hamburg","phone":"040 30703777","hours":[{"day":"Montag","timings":"Geschlossen"},{"day":"Dienstag - Sonntag","timings":"18:00 - 22:00"}],"website":"http://ramen-bar.de","location":{"lat":53.5726357,"lng":9.960073999999999},"place_id":"ChIJl8LFcVCPsUcRIo81qsooFVc"},{"name":"MOMO Ramen","description":"Der einzige Ramenladen in der berühmten „Schanze“ - super lecker noch dazu.","address":"Margaretenstraße 58, 20357 Hamburg","phone":"040 30703777","hours":[{"day":"Montag - Freitag","timings":"18:00 - 22:00"},{"day":"Samstag & Sonntag","timings":"13:00 - 22:00"}],"website":"http://www.momo-ramen.de","location":{"lat":53.5662223,"lng":9.9634776},"place_id":"ChIJx152fUOPsUcRvzlmjNUp888"},{"name":"Kokomo Noodle Club","description":"Urbaner Look mit traditionellem Ambiente.","address":"Clemens-Schultz-Straße 41, 20359 Hamburg","phone":"040 52155970","hours":[{"day":"Sonntag - Donnerstag","timings":"12:00 - 22:00"},{"day":"Freitag & Samstag","timings":"12:00 - 23:00"}],"website":"http://www.momo-ramen.de","location":{"lat":53.5524882,"lng":9.9623987},"place_id":"ChIJF7eNfm6PsUcRXHAWR0B4S_g"}],"rests":[{"name":"Ramen Bar Zipang","description":"Sobald ihr den Laden betretet fühlt ihr euch als wärt ihr in Tokio.","address":"Eppendorfer Weg 62, 20259 Hamburg","phone":"040 30703777","hours":[{"day":"Montag","timings":"Geschlossen"},{"day":"Dienstag - Sonntag","timings":"18:00 - 22:00"}],"website":"http://ramen-bar.de","location":{"lat":53.5726357,"lng":9.960073999999999},"place_id":"ChIJl8LFcVCPsUcRIo81qsooFVc"},{"name":"Kokomo Noodle Club","description":"Urbaner Look mit traditionellem Ambiente.","address":"Clemens-Schultz-Straße 41, 20359 Hamburg","phone":"040 52155970","hours":[{"day":"Sonntag - Donnerstag","timings":"12:00 - 22:00"},{"day":"Freitag & Samstag","timings":"12:00 - 23:00"}],"website":"http://www.momo-ramen.de","location":{"lat":53.5524882,"lng":9.9623987},"place_id":"ChIJF7eNfm6PsUcRXHAWR0B4S_g"},{"name":"MOMO Ramen","description":"Der einzige Ramenladen in der berühmten „Schanze“ - super lecker noch dazu.","address":"Margaretenstraße 58, 20357 Hamburg","phone":"040 30703777","hours":[{"day":"Montag - Freitag","timings":"18:00 - 22:00"},{"day":"Samstag & Sonntag","timings":"13:00 - 22:00"}],"website":"http://www.momo-ramen.de","location":{"lat":53.5662223,"lng":9.9634776},"place_id":"ChIJx152fUOPsUcRvzlmjNUp888"}]},{"city":"Berlin","geo":{"lat":52.52,"lng":13.405},"restaurants":[{"name":"Cocolo Ramen X-berg","description":"Hier findet ihr viel Auswahl und Variationen, wenn es um Ramen geht - ein sehr","address":"Paul-Lincke-Ufer 39-40, 10999 Berlin","hours":[{"day":"Montag - Samstag","timings":"12:00 - 23:00"}],"phone":"030 98339073","location":{"lat":52.4966706,"lng":13.4225608},"place_id":"ChIJU2yw4MpPqEcR56FvelCSm5A"},{"name":"Cocolo Ramen","description":"Die kleine Schwester von „Cocolo Ramen X-berg“.","address":"Gipsstraße 3, 10119 Berlin","hours":[{"day":"Montag - Samstag","timings":"18:00 - 0:00"},{"day":"Sonntag","timings":"Geschlossen"}],"website":"http://kuchi.de/","location":{"lat":52.5271819,"lng":13.3993066},"place_id":"ChIJ133InOZRqEcRyWmWgjkY6KE"},{"name":"Marubi Ramen Japanische & Shanghai Spezialitäten","description":"„Marubi kocht absolut ohne Glutamat“, heisst es auf der offiziellen Website. Also wer darauf verzichten möchte, sollte dort unbedingt vorbeischauen.","address":"Schönhauser Alle 177, 10119 Berlin","hours":[{"day":"Montag - Samstag","timings":"12:00 - 22:00"},{"day":"Sonntag","timings":"17:00 - 22:00"}],"phone":"030 47378858","website":"http://marubi.eu/","location":{"lat":52.5314367,"lng":13.4117509},"place_id":"ChIJ0VYsVf1RqEcRyAPeG3I4iZk"},{"name":"Takumi NINE Sapporo","description":"Takumi sollte dem einem oder anderen Ramenliebhaber inzwischen bekannt sein. Dieser hier ist nur ein weiterer erfolgreicher Laden der Kette aus Düsseldorf.","address":"Chauseestr. 124, 10115 Berlin","hours":[{"day":"Montag - Freitag","timings":"12:00 - 15:00, 18:00 - 23:00"},{"day":"Samstag & Sonntag","timings":"13:00 - 22:00"}],"website":"http://takumininberlin.de/","location":{"lat":52.5290334,"lng":13.3846772},"place_id":"ChIJv07Qh-tRqEcRdNC50ECvRWU"}],"rests":[{"name":"Marubi Ramen Japanische & Shanghai Spezialitäten","description":"„Marubi kocht absolut ohne Glutamat“, heisst es auf der offiziellen Website. Also wer darauf verzichten möchte, sollte dort unbedingt vorbeischauen.","address":"Schönhauser Alle 177, 10119 Berlin","hours":[{"day":"Montag - Samstag","timings":"12:00 - 22:00"},{"day":"Sonntag","timings":"17:00 - 22:00"}],"phone":"030 47378858","website":"http://marubi.eu/","location":{"lat":52.5314367,"lng":13.4117509},"place_id":"ChIJ0VYsVf1RqEcRyAPeG3I4iZk"},{"name":"Cocolo Ramen","description":"Die kleine Schwester von „Cocolo Ramen X-berg“.","address":"Gipsstraße 3, 10119 Berlin","hours":[{"day":"Montag - Samstag","timings":"18:00 - 0:00"},{"day":"Sonntag","timings":"Geschlossen"}],"website":"http://kuchi.de/","location":{"lat":52.5271819,"lng":13.3993066},"place_id":"ChIJ133InOZRqEcRyWmWgjkY6KE"},{"name":"Cocolo Ramen X-berg","description":"Hier findet ihr viel Auswahl und Variationen, wenn es um Ramen geht - ein sehr","address":"Paul-Lincke-Ufer 39-40, 10999 Berlin","hours":[{"day":"Montag - Samstag","timings":"12:00 - 23:00"}],"phone":"030 98339073","location":{"lat":52.4966706,"lng":13.4225608},"place_id":"ChIJU2yw4MpPqEcR56FvelCSm5A"},{"name":"Takumi NINE Sapporo","description":"Takumi sollte dem einem oder anderen Ramenliebhaber inzwischen bekannt sein. Dieser hier ist nur ein weiterer erfolgreicher Laden der Kette aus Düsseldorf.","address":"Chauseestr. 124, 10115 Berlin","hours":[{"day":"Montag - Freitag","timings":"12:00 - 15:00, 18:00 - 23:00"},{"day":"Samstag & Sonntag","timings":"13:00 - 22:00"}],"website":"http://takumininberlin.de/","location":{"lat":52.5290334,"lng":13.3846772},"place_id":"ChIJv07Qh-tRqEcRdNC50ECvRWU"}]},{"city":"Nürnberg","geo":{"lat":49.4521,"lng":11.0767},"restaurants":[{"name":"Ishihara","description":"Euer Essen wird live vor euch zubereitet und direkt auf den Teller serviert.","address":"Schottengasse 3, 90402 Nürnberg","phone":"0911 226395","hours":[{"day":"Montag – Samstag","timings":"12:00 - 14:30, 18:00 - 22:00"},{"day":"Sonntag","timings":"Geschlossen"}],"website":"http://ishihara.de","location":{"lat":49.448286,"lng":11.0704377},"place_id":"ChIJyWUwv6lXn0cRcHd8sVipExs"},{"name":"KomeKome","description":"Erfahrt hier eine authentische japanische Atmosphäre mit vielfältiger Auswahl von Ramen-Toppings.","address":"Kirchenweg 22, 90419 Nürnberg","phone":"0911 37844615","hours":[{"day":"Montag","timings":"Geschlossen"},{"day":"Dienstag - Mittwoch","timings":"17:30 - 21:30"},{"day":"Donnerstag—Samstag","timings":"11:30 - 14:30, 17:30 - 23:00"},{"day":"Sonntag","timings":"11:30 - 14:30, 17:30 - 21:30"}],"website":"http://komekome.de","location":{"lat":49.4620021,"lng":11.0667002},"place_id":"ChIJh85yskxWn0cRu-kkxXHHvWQ"},{"name":"KOKORO","description":"Traditionell-japanische Küche mit modernem Ambiente.","address":"Luitpoldstraße 3, 90402 Nürnberg","phone":"0911 66486801","hours":[{"day":"Montag – Freitag","timings":"11:30 - 14:30, 17:30 - 22:30"},{"day":"Samstag – Sonntag","timings":"12:00 - 15:00, 17:00 - 22:30"}],"website":"http://www.kokororestaurant.de/","location":{"lat":49.4479556,"lng":11.080299},"place_id":"ChIJ-wX6IqdXn0cRK_3JfE1kBKQ"}],"rests":[{"name":"KOKORO","description":"Traditionell-japanische Küche mit modernem Ambiente.","address":"Luitpoldstraße 3, 90402 Nürnberg","phone":"0911 66486801","hours":[{"day":"Montag – Freitag","timings":"11:30 - 14:30, 17:30 - 22:30"},{"day":"Samstag – Sonntag","timings":"12:00 - 15:00, 17:00 - 22:30"}],"website":"http://www.kokororestaurant.de/","location":{"lat":49.4479556,"lng":11.080299},"place_id":"ChIJ-wX6IqdXn0cRK_3JfE1kBKQ"},{"name":"Ishihara","description":"Euer Essen wird live vor euch zubereitet und direkt auf den Teller serviert.","address":"Schottengasse 3, 90402 Nürnberg","phone":"0911 226395","hours":[{"day":"Montag – Samstag","timings":"12:00 - 14:30, 18:00 - 22:00"},{"day":"Sonntag","timings":"Geschlossen"}],"website":"http://ishihara.de","location":{"lat":49.448286,"lng":11.0704377},"place_id":"ChIJyWUwv6lXn0cRcHd8sVipExs"},{"name":"KomeKome","description":"Erfahrt hier eine authentische japanische Atmosphäre mit vielfältiger Auswahl von Ramen-Toppings.","address":"Kirchenweg 22, 90419 Nürnberg","phone":"0911 37844615","hours":[{"day":"Montag","timings":"Geschlossen"},{"day":"Dienstag - Mittwoch","timings":"17:30 - 21:30"},{"day":"Donnerstag—Samstag","timings":"11:30 - 14:30, 17:30 - 23:00"},{"day":"Sonntag","timings":"11:30 - 14:30, 17:30 - 21:30"}],"website":"http://komekome.de","location":{"lat":49.4620021,"lng":11.0667002},"place_id":"ChIJh85yskxWn0cRu-kkxXHHvWQ"}]},{"city":"Stuttgart","geo":{"lat":48.7758,"lng":9.1829},"restaurants":[{"name":"Tokio Dining","description":"Außer den leckeren Ramen werden bei Tokio Dining auch Sushi-Workshops angeboten.","address":"Steubenstraße 12, 70190 Stuttgart","phone":"0711 50443102","hours":[{"day":"Montag – Samstag","timings":"12:00 - 14:30, 18:00 - 22:30"},{"day":"Sonntag","timings":"17:30 - 21:30"}],"website":"http://www.tokiodining.de/","location":{"lat":48.7958208,"lng":9.2076076},"place_id":"ChIJ09aISSfFmUcRUzhJ1rFvSUg"},{"name":"Shima Restaurant","description":"Sowohl kulturelles Essen als auch kulturelle Räumlichkeiten werden euch hier geboten.","address":"Olgastraße 86 am Mozartplatz Stuttgart, 70180","phone":"0711 86029339","hours":[{"day":"Montag – Donnerstag","timings":"12:00 - 14:30, 18:00 - 22:30"},{"day":"Freitag- Samstag","timings":"12:00 - 14:30, 18:00 - 23:00"},{"day":"Sonntag","timings":"17:30 - 21:30"}],"website":"http://shima-stuttgart.de/","location":{"lat":48.7698871,"lng":9.1803448},"place_id":"ChIJv0Gw0kzbmUcRnn-v3GppmxY"},{"name":"Mikoto","description":"Ein besonderes kulinarisches Erlebnis erwartet euch hier.","address":"Tübinger Str. 41-43, 70178 Stuttgart","phone":"0711 50432203","hours":[{"day":"Montag – Freitag","timings":"12:00-15:00, 17:00-00:00"},{"day":"FreitagSamstag","timings":"12:00-0:00"},{"day":"Sonntag & Feiertag","timings":"12:00 - 23:00"}],"website":"http://mikoto-stuttgart.de","location":{"lat":48.7699101,"lng":9.1731167},"place_id":"ChIJpxjzk07bmUcRlb4R2y_DBgs"}],"rests":[{"name":"Tokio Dining","description":"Außer den leckeren Ramen werden bei Tokio Dining auch Sushi-Workshops angeboten.","address":"Steubenstraße 12, 70190 Stuttgart","phone":"0711 50443102","hours":[{"day":"Montag – Samstag","timings":"12:00 - 14:30, 18:00 - 22:30"},{"day":"Sonntag","timings":"17:30 - 21:30"}],"website":"http://www.tokiodining.de/","location":{"lat":48.7958208,"lng":9.2076076},"place_id":"ChIJ09aISSfFmUcRUzhJ1rFvSUg"},{"name":"Mikoto","description":"Ein besonderes kulinarisches Erlebnis erwartet euch hier.","address":"Tübinger Str. 41-43, 70178 Stuttgart","phone":"0711 50432203","hours":[{"day":"Montag – Freitag","timings":"12:00-15:00, 17:00-00:00"},{"day":"FreitagSamstag","timings":"12:00-0:00"},{"day":"Sonntag & Feiertag","timings":"12:00 - 23:00"}],"website":"http://mikoto-stuttgart.de","location":{"lat":48.7699101,"lng":9.1731167},"place_id":"ChIJpxjzk07bmUcRlb4R2y_DBgs"},{"name":"Shima Restaurant","description":"Sowohl kulturelles Essen als auch kulturelle Räumlichkeiten werden euch hier geboten.","address":"Olgastraße 86 am Mozartplatz Stuttgart, 70180","phone":"0711 86029339","hours":[{"day":"Montag – Donnerstag","timings":"12:00 - 14:30, 18:00 - 22:30"},{"day":"Freitag- Samstag","timings":"12:00 - 14:30, 18:00 - 23:00"},{"day":"Sonntag","timings":"17:30 - 21:30"}],"website":"http://shima-stuttgart.de/","location":{"lat":48.7698871,"lng":9.1803448},"place_id":"ChIJv0Gw0kzbmUcRnn-v3GppmxY"}]},{"city":"München","geo":{"lat":48.1351,"lng":11.582},"restaurants":[{"name":"TAKUMI München","description":"Hier gibt es sogar hausgemachte Nudeln.","address":"Heßstraße 71, 80798 München","hours":[{"day":"Montag – Freitag","timings":"12:00 - 15:00, 17:00 - 22:00"},{"day":"Samstag","timings":"12:00 - 22:00"},{"day":"Sonntag & Feiertag","timings":"12:00 - 21:00"}],"website":"http://www.takumi-noodle.com/","location":{"lat":48.1532042,"lng":11.5610206},"place_id":"ChIJtzxWJeF1nkcRdHFhArLh_XY"},{"name":"YUZUMUK","description":"Das Tonkotsu Ramen mit Schweineknochenbrühe muss unbedingt probiert werden.","address":"Westenriederstraße 8, 80331 München","phone":"089 12739374","hours":[{"day":"Montag - Samstag","timings":"11:30-21:00"},{"day":"Sonntag","timings":"Geschlossen"}],"location":{"lat":48.1349023,"lng":11.5778315},"place_id":"ChIJNzL_eop1nkcRamtrWg1MVNQ"}],"rests":[{"name":"YUZUMUK","description":"Das Tonkotsu Ramen mit Schweineknochenbrühe muss unbedingt probiert werden.","address":"Westenriederstraße 8, 80331 München","phone":"089 12739374","hours":[{"day":"Montag - Samstag","timings":"11:30-21:00"},{"day":"Sonntag","timings":"Geschlossen"}],"location":{"lat":48.1349023,"lng":11.5778315},"place_id":"ChIJNzL_eop1nkcRamtrWg1MVNQ"},{"name":"TAKUMI München","description":"Hier gibt es sogar hausgemachte Nudeln.","address":"Heßstraße 71, 80798 München","hours":[{"day":"Montag – Freitag","timings":"12:00 - 15:00, 17:00 - 22:00"},{"day":"Samstag","timings":"12:00 - 22:00"},{"day":"Sonntag & Feiertag","timings":"12:00 - 21:00"}],"website":"http://www.takumi-noodle.com/","location":{"lat":48.1532042,"lng":11.5610206},"place_id":"ChIJtzxWJeF1nkcRdHFhArLh_XY"}]},{"city":"Leipzig","geo":{"lat":51.3397,"lng":12.3731},"restaurants":[{"name":"KIRIGAMI Ramen Leipzig","description":"Vegetarisches Ramen? Kein Problem!","address":"Chopinstraße 15, 04103 Leipzig","phone":"0341 68416888","hours":[{"day":"Montag - Freitag","timings":"11:00-14:30, 17:30-21:00"},{"day":"Samstag","timings":"17:30 - 22:00"},{"day":"Sonntag","timings":"Geschlossen"}],"website":"http://www.kirigamileipzig.de/","location":{"lat":51.3435061,"lng":12.3902639},"place_id":"ChIJD1G-HRb4pkcRQRygYy5nPFI"},{"name":"Umai Ramen Bar","description":"Esst hier traditionelle Ramen in modernen Räumlichkeiten.","address":"Klostergasse 7-9, 04109 Leipzig","phone":"0341 2222575","hours":[{"day":"Montag - Freitag","timings":"12:00-22:00"},{"day":"Samstag","timings":"Geschlossen"},{"day":"Sonntag","timings":"14:00 - 22:00"}],"website":"http://umaii.de","location":{"lat":51.3406731,"lng":12.3728297},"place_id":"ChIJJbWcMCH4pkcRbKnHK6_TJOI"}],"rests":[{"name":"KIRIGAMI Ramen Leipzig","description":"Vegetarisches Ramen? Kein Problem!","address":"Chopinstraße 15, 04103 Leipzig","phone":"0341 68416888","hours":[{"day":"Montag - Freitag","timings":"11:00-14:30, 17:30-21:00"},{"day":"Samstag","timings":"17:30 - 22:00"},{"day":"Sonntag","timings":"Geschlossen"}],"website":"http://www.kirigamileipzig.de/","location":{"lat":51.3435061,"lng":12.3902639},"place_id":"ChIJD1G-HRb4pkcRQRygYy5nPFI"},{"name":"Umai Ramen Bar","description":"Esst hier traditionelle Ramen in modernen Räumlichkeiten.","address":"Klostergasse 7-9, 04109 Leipzig","phone":"0341 2222575","hours":[{"day":"Montag - Freitag","timings":"12:00-22:00"},{"day":"Samstag","timings":"Geschlossen"},{"day":"Sonntag","timings":"14:00 - 22:00"}],"website":"http://umaii.de","location":{"lat":51.3406731,"lng":12.3728297},"place_id":"ChIJJbWcMCH4pkcRbKnHK6_TJOI"}]},{"city":"Köln","geo":{"lat":50.9375,"lng":6.9603},"restaurants":[{"name":"Tobioka","description":"Toller Service, umfangreiche Karte.","address":"Karolingerring 40, 50678 Köln","phone":"0221 3489888","hours":[{"day":"Montag - Freitag","timings":"12:00-14:30, 18:30-22:30"},{"day":"Samstag - Sonntag","timings":"18:30-22:30"}],"website":"http://www.tobioka.de/","location":{"lat":50.9222889,"lng":6.9569319},"place_id":"ChIJ2-YXBE8kv0cRujutw19YX88"},{"name":"Shokudo Nudelhaus & Sushi","description":"So frisch und bekömmlich gibt es die im Umkreis sonst nirgendwo.","address":"Lützowstraße 41, 50674 Köln","phone":"0221 2760188","hours":[{"day":"Montag - Samstag","timings":"12:00-16:00, 17:00-23:00"},{"day":"Samstag - Sonntag","timings":"15:00-23:00"}],"location":{"lat":50.934015,"lng":6.932429},"place_id":"ChIJo1la8AIlv0cRNybnkiKfT8I"},{"name":"Restaurant NIKKO","description":"Gerichte aus frischen Zutaten, zubereitet nach den Techniken der traditionellen japanischen Küche","address":"Dürener Str. 89, 50931 Köln","phone":"0221 4000094","hours":[{"day":"Montag - Freitag","timings":"12:00 - 14:30,  18:30 - 22:30"},{"day":"Samstag - Sonntag & Freitag","timings":"18.00 - 22:00"}],"website":"http://nikko-koeln.de","location":{"lat":50.9325366,"lng":6.921146299999999},"place_id":"ChIJy34Y3uEkv0cR-BBGYwHGNBQ"}],"rests":[{"name":"Tobioka","description":"Toller Service, umfangreiche Karte.","address":"Karolingerring 40, 50678 Köln","phone":"0221 3489888","hours":[{"day":"Montag - Freitag","timings":"12:00-14:30, 18:30-22:30"},{"day":"Samstag - Sonntag","timings":"18:30-22:30"}],"website":"http://www.tobioka.de/","location":{"lat":50.9222889,"lng":6.9569319},"place_id":"ChIJ2-YXBE8kv0cRujutw19YX88"},{"name":"Shokudo Nudelhaus & Sushi","description":"So frisch und bekömmlich gibt es die im Umkreis sonst nirgendwo.","address":"Lützowstraße 41, 50674 Köln","phone":"0221 2760188","hours":[{"day":"Montag - Samstag","timings":"12:00-16:00, 17:00-23:00"},{"day":"Samstag - Sonntag","timings":"15:00-23:00"}],"location":{"lat":50.934015,"lng":6.932429},"place_id":"ChIJo1la8AIlv0cRNybnkiKfT8I"},{"name":"Restaurant NIKKO","description":"Gerichte aus frischen Zutaten, zubereitet nach den Techniken der traditionellen japanischen Küche","address":"Dürener Str. 89, 50931 Köln","phone":"0221 4000094","hours":[{"day":"Montag - Freitag","timings":"12:00 - 14:30,  18:30 - 22:30"},{"day":"Samstag - Sonntag & Freitag","timings":"18.00 - 22:00"}],"website":"http://nikko-koeln.de","location":{"lat":50.9325366,"lng":6.921146299999999},"place_id":"ChIJy34Y3uEkv0cR-BBGYwHGNBQ"}]},{"city":"Dortmund","geo":{"lat":51.5136,"lng":7.4653},"restaurants":[{"name":"Restaurant Kyoto - Dortmund","description":"Sorgt euch nicht, wenn ihr keine Zeit habt: Hier werden die Ramen sogar vor eure Tür geliefert.","address":"Rosental 9, 44135 Dortmund","phone":"0231 5898400","hours":[{"day":"Montag - Donnerstag","timings":"12:00 - 15:00, 17:00 - 22:30"},{"day":"Freitag","timings":"12:00 - 15:00, 17:00 - 23:00"},{"day":"Samstag","timings":"12:00 - 23:00"},{"day":"Sonntag","timings":"12:00 - 21:30"}],"website":"http://www.kyoto-dortmund.de/","location":{"lat":51.5136004,"lng":7.4689236},"place_id":"ChIJHRQ2Ol8XuUcR4aLOwsjF1LM"},{"name":"KimBaBBox","description":"Empfehlenswert: Nudelsuppe III mit Tofu, Algen, Möhren, Schnittlauch und Sesam, und Rinderhack.","address":"Hohe Str. 57, 44139 Dortmund","phone":"0231 47418418","hours":[{"day":"Montag - Freitag","timings":"12:00 - 15:00, 16:30 - 21:00"},{"day":"Sonntag","timings":"16:30 - 21:00"}],"location":{"lat":51.5049195,"lng":7.4590538},"place_id":"ChIJB0iXsd4ZuUcRWpex_WRQZ2w"}],"rests":[{"name":"Restaurant Kyoto - Dortmund","description":"Sorgt euch nicht, wenn ihr keine Zeit habt: Hier werden die Ramen sogar vor eure Tür geliefert.","address":"Rosental 9, 44135 Dortmund","phone":"0231 5898400","hours":[{"day":"Montag - Donnerstag","timings":"12:00 - 15:00, 17:00 - 22:30"},{"day":"Freitag","timings":"12:00 - 15:00, 17:00 - 23:00"},{"day":"Samstag","timings":"12:00 - 23:00"},{"day":"Sonntag","timings":"12:00 - 21:30"}],"website":"http://www.kyoto-dortmund.de/","location":{"lat":51.5136004,"lng":7.4689236},"place_id":"ChIJHRQ2Ol8XuUcR4aLOwsjF1LM"},{"name":"KimBaBBox","description":"Empfehlenswert: Nudelsuppe III mit Tofu, Algen, Möhren, Schnittlauch und Sesam, und Rinderhack.","address":"Hohe Str. 57, 44139 Dortmund","phone":"0231 47418418","hours":[{"day":"Montag - Freitag","timings":"12:00 - 15:00, 16:30 - 21:00"},{"day":"Sonntag","timings":"16:30 - 21:00"}],"location":{"lat":51.5049195,"lng":7.4590538},"place_id":"ChIJB0iXsd4ZuUcRWpex_WRQZ2w"}]},{"city":"Düsseldorf","geo":{"lat":51.2277,"lng":6.7735},"restaurants":[{"name":"Takumi","description":"„Authentisch, Original und Japanisch.“","address":"Immermannstraße 28, 40210 Düsseldorf","hours":[{"day":"Montag - Freitag","timings":"11:30 -22:30"},{"day":"Samstag","timings":"11:30 - 23:00"},{"day":"Sonntag","timings":"11:30 -23:30"}],"phone":"0211 1793308","website":"http://brickny.com/takumi/","location":{"lat":51.2236278,"lng":6.7889458},"place_id":"ChIJObAKrTrKuEcR2fHGz5Flamk"},{"name":"Naniwa Noodles & Soups","address":"Oststraße 55, 40211 Düsseldorf","description":"Die Schlange vor dem Laden könnte durchaus mal länger sein, allerdings hat das seine Gründe.","hours":[{"day":"Mittwoch - Montag","timings":"11:30-21:30"},{"day":"Dienstag","timings":"Geschlossen"}],"phone":"0211 161799","website":"http://naniwa.de","location":{"lat":51.224989,"lng":6.7881388},"place_id":"ChIJzcysPyXKuEcRryf9mRF22L8"},{"name":"Takezo","description":"Ursprünglich ist die Kette „Takezo“ aus Japan. Also was könnte authentischer sein als das?","address":"Immermannstraße 48, 40210 Düsseldorf","hours":[{"day":"Mittwoch - Samstag","timings":"12-00"},{"day":"So","timings":"12:00-22:00"}],"phone":"0211 39022053","website":"http://takezo.de","location":{"lat":51.2227239,"lng":6.7907183},"place_id":"ChIJ2VP_EzDKuEcR8_TRK-uHG_Y"}],"rests":[{"name":"Naniwa Noodles & Soups","address":"Oststraße 55, 40211 Düsseldorf","description":"Die Schlange vor dem Laden könnte durchaus mal länger sein, allerdings hat das seine Gründe.","hours":[{"day":"Mittwoch - Montag","timings":"11:30-21:30"},{"day":"Dienstag","timings":"Geschlossen"}],"phone":"0211 161799","website":"http://naniwa.de","location":{"lat":51.224989,"lng":6.7881388},"place_id":"ChIJzcysPyXKuEcRryf9mRF22L8"},{"name":"Takumi","description":"„Authentisch, Original und Japanisch.“","address":"Immermannstraße 28, 40210 Düsseldorf","hours":[{"day":"Montag - Freitag","timings":"11:30 -22:30"},{"day":"Samstag","timings":"11:30 - 23:00"},{"day":"Sonntag","timings":"11:30 -23:30"}],"phone":"0211 1793308","website":"http://brickny.com/takumi/","location":{"lat":51.2236278,"lng":6.7889458},"place_id":"ChIJObAKrTrKuEcR2fHGz5Flamk"},{"name":"Takezo","description":"Ursprünglich ist die Kette „Takezo“ aus Japan. Also was könnte authentischer sein als das?","address":"Immermannstraße 48, 40210 Düsseldorf","hours":[{"day":"Mittwoch - Samstag","timings":"12-00"},{"day":"So","timings":"12:00-22:00"}],"phone":"0211 39022053","website":"http://takezo.de","location":{"lat":51.2227239,"lng":6.7907183},"place_id":"ChIJ2VP_EzDKuEcR8_TRK-uHG_Y"}]},{"city":"Frankfurt","geo":{"lat":50.1109,"lng":8.6821},"restaurants":[{"name":"Muku","description":"Japan in Frankfurt","address":"Dreieichstr. 7, 60594 Frankfurt am Main","hours":[{"day":"Dienstag - Freitag","timings":"18:00-23:0"},{"day":"Samstag","timings":"12:00-14:00, 18:00-23:00"},{"day":"Sonntag","timings":"17:00 -21:00"}],"phone":"069 48445153","website":"http://www.muku-ramen.com","location":{"lat":50.106039,"lng":8.692535},"place_id":"ChIJVX6vAqAOvUcRe-zxKipNsAw"}],"rests":[{"name":"Muku","description":"Japan in Frankfurt","address":"Dreieichstr. 7, 60594 Frankfurt am Main","hours":[{"day":"Dienstag - Freitag","timings":"18:00-23:0"},{"day":"Samstag","timings":"12:00-14:00, 18:00-23:00"},{"day":"Sonntag","timings":"17:00 -21:00"}],"phone":"069 48445153","website":"http://www.muku-ramen.com","location":{"lat":50.106039,"lng":8.692535},"place_id":"ChIJVX6vAqAOvUcRe-zxKipNsAw"}]}]}