{"data":[{"city":"München","geo":{"lat":48.1351,"lng":11.582},"shops":[{"name":"i.Shop","address":"Prinzregentenstraße 120, 81677 München","hours":[{"day":"Montag - Samstag","timings":"9:30-19:00"}],"phone":"089 62240036","location":{"lat":48.1379625,"lng":11.6151609}},{"name":"Asia Center","address":"Friedenstraße 2, 81671 München","hours":[{"day":"Montag - Samstag","timings":"8:30-20:00"}],"phone":"089 61372862","location":{"lat":48.12446629999999,"lng":11.6032597}},{"name":"Mekong Markt","address":"Müllerstraße 34, 80469 München","hours":[{"day":"Montag - Samstag","timings":"9:30-19:00"}],"phone":"089 26011738","location":{"lat":48.1309882,"lng":11.5706003}}]},{"city":"Köln","geo":{"lat":50.9375,"lng":6.9603},"shops":[{"name":"Heng Long Asia Supermarkt","address":"Aachener Str. 201-209, 50931 Köln","hours":[{"day":"Montag - Samstag","timings":"9:30-19:00"}],"phone":"0221 2828800","location":{"lat":50.9359494,"lng":6.922606}},{"name":"Graces Asian Shop UG","address":"Albertusstraße 7, 50667 Köln","hours":[{"day":"Montag - Samstag","timings":"12:00-16:00"}],"phone":"0221 2574803","location":{"lat":50.93898009999999,"lng":6.944643399999999}},{"name":"Asia Markt Chhay Tri Long","address":"Melatengürtel 22, 50933 Köln","hours":[{"day":"Montag - Samstag","timings":"10:00-19:00"}],"phone":"0221 2406659","location":{"lat":50.9387392,"lng":6.910344900000001}}]},{"city":"Nürnberg","geo":{"lat":49.4521,"lng":11.0767},"shops":[{"name":"Kajanas Asia Shop","address":"Breitscheidstraße 19, 90459 Nürnberg","hours":[{"day":"Montag - Samstag","timings":"10:00-20:00"}],"phone":"0911 49124","location":{"lat":49.4415631,"lng":11.0828004}},{"name":"Asia Shop Wing Fat","address":"Sulzbacher Str. 97, 90489 Nürnberg","hours":[{"day":"Montag - Samstag","timings":"9:00-19:00"}],"phone":"0911 5818925","location":{"lat":49.45972829999999,"lng":11.1009619}},{"name":"Asia Kauf-Center","address":"Kirchenweg 19, 90419 Nürnberg","hours":[{"day":"Montag - Samstag","timings":"9:30-19:00"}],"phone":"0911 331920","location":{"lat":49.4617802,"lng":11.0666371}}]},{"city":"Stuttgart","geo":{"lat":48.7758,"lng":9.1829},"shops":[{"name":"Trieu Asia Shop","address":"Eberhardstraße 1, 70173 Stuttgart","hours":[{"day":"Montag - Samstag","timings":"9:30-20:00"}],"phone":"0711 2486888","location":{"lat":48.7741741,"lng":9.180132}},{"name":"Cash and Carry Asia Shop","address":"Seyfferstraße 27, 70197 Stuttgart","hours":[{"day":"Montag - Samstag","timings":"8:30-20:00"}],"phone":"0711 627279","location":{"lat":48.7695777,"lng":9.154681799999999}},{"name":"BETA Asia Supermarkt","address":"Hedelfinger Str. 55, 70327 Stuttgart","hours":[{"day":"Montag - Samstag","timings":"9:30-19:00"}],"phone":"0711 22012734","location":{"lat":48.76786509999999,"lng":9.248747999999999}}]},{"city":"Leipzig","geo":{"lat":51.3397,"lng":12.3731},"shops":[{"name":"Asia Bistro and Supermarkt","address":"Hainstraße 4, 04109 Leipzig","hours":[{"day":"Montag - Samstag","timings":"9:30-20:00"}],"phone":"0341 9939653","location":{"lat":51.341721,"lng":12.3743125}},{"name":"Korea Markt","address":"Eisenbahnstraße 17, 04315 Leipzig","hours":[{"day":"Montag - Samstag","timings":"10:30-20:00"}],"phone":"0341 4686498","location":{"lat":51.3461726,"lng":12.3972045}},{"name":"Mekong Asiasupermarkt","address":"Ritterstraße 44-48, 04109 Leipzig","hours":[{"day":"Montag - Samstag","timings":"9:30-20:00"}],"phone":"0341 9610438","location":{"lat":51.3419361,"lng":12.3797866}}]},{"city":"Dortmund","geo":{"lat":51.5136,"lng":7.4653},"shops":[{"name":"Tain Kim Heng","address":"Hohe Str. 62, 44139 Dortmund","hours":[{"day":"Montag - Samstag","timings":"9:30-19:00"}],"phone":"0231 95290488","location":{"lat":51.503765,"lng":7.459046999999999}},{"name":"TTS Asien Supermarkt","address":"Rheinische Str. 52, 44137 Dortmund","hours":[{"day":"Montag - Samstag","timings":"9:30-20:00"}],"phone":"0231 819288","location":{"lat":51.5129717,"lng":7.448692599999999}},{"name":"Suresch Asiafrischmarkt","address":"6 Brüderweg, 44135 Dortmund","hours":[{"day":"Montag - Samstag","timings":"9:00-20:00"}],"phone":"0231 551760","location":{"lat":51.5153666,"lng":7.469716399999998}}]},{"city":"Berlin","geo":{"lat":52.52,"lng":13.405},"shops":[{"name":"Asia Markt Lee GmbH","address":"Dircksenstraße 101-103, 10179 Berlin","hours":[{"day":"Montag - Samstag","timings":"9:00-20:00"}],"phone":"030 84712697","location":{"lat":52.5191953,"lng":13.4142809}},{"name":"Asia-Markt","address":"Kopenhagener Str. 2, 10437","hours":[{"day":"Montag - Freitag","timings":"9:00-20:00"},{"day":"Samstag","timings":"10:00-20:00"}],"phone":"030 40504959","location":{"lat":52.5488964,"lng":13.4127402}},{"name":"Asia Mekong","address":"Henriette-Herz-Platz 1, 10178 Berlin","hours":[{"day":"Montag - Samstag","timings":"10:00-20:00"}],"phone":"030 2478282","location":{"lat":52.5221006,"lng":13.401231}},{"name":"Go Asia","address":"Turmstr. 29, 10551 Berlin","hours":[{"day":"Montag - Samstag","timings":"9:00-21:00"}],"phone":"030 39882841","location":{"lat":52.5266101,"lng":13.3419886}}]},{"city":"Düsseldorf","geo":{"lat":51.2277,"lng":6.7735},"shops":[{"name":"Tains - mein Asiamarkt GmbH","address":"Immermannstraße 50-52, 40210 Düsseldorf","hours":[{"day":"Montag - Samstag","timings":"9:00-22:00"}],"phone":"0211 91736415","location":{"lat":51.2226283,"lng":6.790796599999999}},{"name":"Hanaro Markt","address":"Immermannstraße 45C, 40210 Düsseldorf","hours":[{"day":"Montag - Samstag","timings":"9:30-20:00"}],"phone":"0211 369922","location":{"lat":51.2227097,"lng":6.7892778}},{"name":"Dae-yang Asiatische Lebensmittel","address":"Immermannstraße 21, 40210 Düsseldorf","hours":[{"day":"Montag - Samstag","timings":"9:00-20:00"}],"phone":"0211 1611567","location":{"lat":51.22401,"lng":6.7867001}}]},{"city":"Bremen","geo":{"lat":53.0793,"lng":8.8017},"shops":[{"name":"Hua Li Asia Supermarkt","address":"Bahnhofstr. 10, 28195 Bremen","hours":[{"day":"Montag - Samstag","timings":"10:00-19:30"}],"phone":"0412 24278668","location":{"lat":53.0810907,"lng":8.811239}},{"name":"Asia Shopping Bremen - Dong Fang","address":"Eher Heerstraße 68A, 28359 Bremen","hours":[{"day":"Montag - Freitag","timings":"10:00-18:30"},{"day":"Samstag","timings":"10:00-16:00"}],"location":{"lat":53.1015607,"lng":8.8747562}},{"name":"Asia Shop","address":"Martinistraße  66, 28195 Bremen","hours":[{"day":"Montag - Samstag","timings":"9:30-19:00"}],"phone":"0421 1690917","location":{"lat":53.0779501,"lng":8.8012687}}]},{"city":"Hamburg","geo":{"lat":53.5511,"lng":9.9937},"shops":[{"name":"Vinh-Loi Asien Supermarkt","address":"Klosterwall 2A, 20095 Hamburg","hours":[{"day":"Montag - Samstag","timings":"9:00-19:00"}],"phone":"040 3258890","location":{"lat":53.5496481,"lng":10.0055985}},{"name":"Asia-Markt Lebensmittel und Geschenkartikel","address":"Rosenstraße 2, 20095 Hamburg","hours":[{"day":"Montag - Samstag","timings":"10:00-19:00"}],"phone":"040 324431","location":{"lat":53.55345149999999,"lng":10.0015972}},{"name":"Yuan Ye Markt","address":"Bugenhagenstraße 5, 20096 Hamburg","hours":[{"day":"Montag - Samstag","timings":"9:30-20:00"}],"phone":"040 30392120","Website":"https://www.yuanye.de/","location":{"lat":53.5506179,"lng":10.0041648}}]},{"city":"Hannover","geo":{"lat":52.3759,"lng":9.732},"shops":[{"name":"Asia Markt Kim-Thanh","address":"Rundester. 6, 30161 Hannover","hours":[{"day":"Montag - Samstag","timings":"9:00-19:00"}],"phone":"0511 3530837","location":{"lat":52.3839683,"lng":9.7462919}},{"name":"i.SHOP Feinkost aus Asien und aller Welt","address":"Andreaestr. 8-9, 30159 Hannover","hours":[{"day":"Montag - Samstag","timings":"9:30-19:00"}],"phone":"0511 51949760","location":{"lat":52.37644,"lng":9.736704699999999}},{"name":"Phungs Asia Shop","address":"Varrelheide 190, 30657 Hannover","hours":[{"day":"Montag - Freitag","timings":"9:00-18:00"},{"day":"Samstag","timings":"9:00-17:00"}],"phone":"0511 3530562","location":{"lat":52.42615,"lng":9.8272}}]},{"city":"Frankfurt","geo":{"lat":50.1109,"lng":8.6821},"shops":[{"name":"Asia Land","address":"Hostatostraße 20, 65929 Frankfurt am Main","hours":[{"day":"Montag - Freitag","timings":"9:00-18:30"},{"day":"Samstag","timings":"9:00-16:00"}],"phone":"069 33008930","location":{"lat":50.10097409999999,"lng":8.5442974}},{"name":"YuanFa Asia Markt","address":"Fahrgasse 90, 60311 Frabkfurt am Main","hours":[{"day":"Montag - Samstag","timings":"10:00-19:30"}],"phone":"069 21938988","location":{"lat":50.1133053,"lng":8.6864183}},{"name":"Taisan","address":"Fahrgasse 95, 60311 Frankfurt am Main","hours":[{"day":"Montag - Samstag","timings":"10:00-19:00"}],"phone":"069 291766","location":{"lat":50.1132625,"lng":8.6858331}}]}]}